{
  "stations": [
    {"station_id": "shinagawa", "name": "品川", "lat": 35.6285, "lon": 139.7388},
    {"station_id": "shibuya", "name": "渋谷", "lat": 35.6580, "lon": 139.7013},
    {"station_id": "shinjuku", "name": "新宿", "lat": 35.6896, "lon": 139.7006},
    {"station_id": "tokyo", "name": "東京", "lat": 35.6812, "lon": 139.7671},
    {"station_id": "ikebukuro", "name": "池袋", "lat": 35.7295, "lon": 139.7109},
    {"station_id": "omiya", "name": "大宮", "lat": 35.9063, "lon": 139.6237},
    {"station_id": "yokohama", "name": "横浜", "lat": 35.4658, "lon": 139.6223},
    {"station_id": "kawasaki", "name": "川崎", "lat": 35.5308, "lon": 139.6991},
    {"station_id": "chiba", "name": "千葉", "lat": 35.6131, "lon": 140.1134},
    {"station_id": "tachikawa", "name": "立川", "lat": 35.6979, "lon": 139.4135},
    {"station_id": "machida", "name": "町田", "lat": 35.5424, "lon": 139.4458},
    {"station_id": "akabane", "name": "赤羽", "lat": 35.7780, "lon": 139.7208},
    {"station_id": "ueno", "name": "上野", "lat": 35.7141, "lon": 139.7774},
    {"station_id": "akihabara", "name": "秋葉原", "lat": 35.6984, "lon": 139.7731},
    {"station_id": "toyosu", "name": "豊洲", "lat": 35.6464, "lon": 139.7914},
    {"station_id": "roppongi", "name": "六本木", "lat": 35.6632, "lon": 139.7323},
    {"station_id": "ebisu", "name": "恵比寿", "lat": 35.6467, "lon": 139.7100},
    {"station_id": "meguro", "name": "目黒", "lat": 35.6337, "lon": 139.7158},
    {"station_id": "gotanda", "name": "五反田", "lat": 35.6262, "lon": 139.7234},
    {"station_id": "osaki", "name": "大崎", "lat": 35.6197, "lon": 139.7285},
    {"station_id": "hamamatsucho", "name": "浜松町", "lat": 35.6554, "lon": 139.7571},
    {"station_id": "tamachi", "name": "田町", "lat": 35.6460, "lon": 139.7478},
    {"station_id": "shimbashi", "name": "新橋", "lat": 35.6660, "lon": 139.7583},
    {"station_id": "yurakucho", "name": "有楽町", "lat": 35.6750, "lon": 139.7630},
    {"station_id": "kanda", "name": "神田", "lat": 35.6918, "lon": 139.7709},
    {"station_id": "ochanomizu", "name": "御茶ノ水", "lat": 35.6997, "lon": 139.7654},
    {"station_id": "iidabashi", "name": "飯田橋", "lat": 35.7020, "lon": 139.7450},
    {"station_id": "yotsuya", "name": "四ツ谷", "lat": 35.6860, "lon": 139.7300},
    {"station_id": "ichigaya", "name": "市ヶ谷", "lat": 35.6919, "lon": 139.7360},
    {"station_id": "nakano", "name": "中野", "lat": 35.7074, "lon": 139.6655},
    {"station_id": "kichijoji", "name": "吉祥寺", "lat": 35.7030, "lon": 139.5795},
    {"station_id": "mitaka", "name": "三鷹", "lat": 35.7028, "lon": 139.5605},
    {"station_id": "kokubunji", "name": "国分寺", "lat": 35.7006, "lon": 139.4807},
    {"station_id": "hachioji", "name": "八王子", "lat": 35.6554, "lon": 139.3389},
    {"station_id": "kamata", "name": "蒲田", "lat": 35.5626, "lon": 139.7161},
    {"station_id": "oimachi", "name": "大井町", "lat": 35.6069, "lon": 139.7348},
    {"station_id": "musashikosugi", "name": "武蔵小杉", "lat": 35.5764, "lon": 139.6595},
    {"station_id": "mizonokuchi", "name": "溝の口", "lat": 35.6010, "lon": 139.6107},
    {"station_id": "noborito", "name": "登戸", "lat": 35.6178, "lon": 139.5654},
    {"station_id": "kashiwa", "name": "柏", "lat": 35.8618, "lon": 139.9745},
    {"station_id": "funabashi", "name": "船橋", "lat": 35.7015, "lon": 139.9853},
    {"station_id": "kitasenju", "name": "北千住", "lat": 35.7497, "lon": 139.8050},
    {"station_id": "nishifunabashi", "name": "西船橋", "lat": 35.7205, "lon": 139.9582},
    {"station_id": "urawa", "name": "浦和", "lat": 35.8585, "lon": 139.6573},
    {"station_id": "kinshicho", "name": "錦糸町", "lat": 35.6959, "lon": 139.8142},
    {"station_id": "oshiage", "name": "押上", "lat": 35.7106, "lon": 139.8127},
    {"station_id": "tsudanuma", "name": "津田沼", "lat": 35.6815, "lon": 140.0230},
    {"station_id": "nippori", "name": "日暮里", "lat": 35.7281, "lon": 139.7707},
    {"station_id": "tabata", "name": "田端", "lat": 35.7381, "lon": 139.7612},
    {"station_id": "takadanobaba", "name": "高田馬場", "lat": 35.7129, "lon": 139.7036},
    {"station_id": "mejiro", "name": "目白", "lat": 35.7213, "lon": 139.7065},
    {"station_id": "otsuka", "name": "大塚", "lat": 35.7319, "lon": 139.7286},
    {"station_id": "sugamo", "name": "巣鴨", "lat": 35.7334, "lon": 139.7394},
    {"station_id": "komagome", "name": "駒込", "lat": 35.7363, "lon": 139.7483},
    {"station_id": "shin_okubo", "name": "新大久保", "lat": 35.7010, "lon": 139.7003},

    {"station_id": "omotesando", "name": "表参道", "lat": 35.6650, "lon": 139.7120},
    {"station_id": "ginza", "name": "銀座", "lat": 35.6717, "lon": 139.7641},
    {"station_id": "otemachi", "name": "大手町", "lat": 35.6853, "lon": 139.7630},
    {"station_id": "akasaka", "name": "赤坂", "lat": 35.6731, "lon": 139.7370},
    {"station_id": "shinkiba", "name": "新木場", "lat": 35.6470, "lon": 139.8260},
    {"station_id": "nakameguro", "name": "中目黒", "lat": 35.6440, "lon": 139.6990},
    {"station_id": "jiyugaoka", "name": "自由が丘", "lat": 35.6070, "lon": 139.6690},
    {"station_id": "ogikubo", "name": "荻窪", "lat": 35.7040, "lon": 139.6200},
    {"station_id": "omori", "name": "大森", "lat": 35.5880, "lon": 139.7280},
    {"station_id": "ayase", "name": "綾瀬", "lat": 35.7630, "lon": 139.8260}
  ]
}
